{
    "institutions": [
        {
            "name": "Academia para o Desenvolvimento da Educação Brasil",
            "description": "ONG responsável por promover capacitações para trabalho, defesa dos direitos socioassistenciais e mobiliazação pela educação.",
            "address": "Av. Barbosa Lima - 149 - Bairo do Recife",
            "phone": "81 3424 2070",
            "latitude": -8.061941635948179,
            "longitude": -34.872561149372544
        },
        {
            "name": "Associação Arte e Vida",
            "description": "Acompanhamento de crianças e adolescentes em situação de risco por meio da promoção de complemento às atividades escolares com aulas de dança, literatura, artes plásticas e jogos educativos.",
            "address": "Rua Madre de Deus - 66 - Bairro do Recife",
            "phone": "81 3424 2765",
            "latitude": -8.064922397004764,
            "longitude": -34.87334425894304
        },
        {
            "name": "Associação Beneficente Filhas de Santana",
            "description": "Promove assistência para idosos, pessoas com deficiência e pessoas em condição de rua. Oferece assitência jurídica aos menos favorecido e às vítimas da violência doméstica.",
            "address": "Rua Dr. José Maria - 1096 - Rosarinho",
            "phone": "81 3441 3934",
            "latitude": -8.034312747181934,
            "longitude": -34.901202577910254
        },
        {
            "name": "Círculo do Coração de Pernambuco",
            "description": "Organização não governamental de apoio à criança cardiopata e seus familiares.",
            "address": "Rua Nossa Senhora da Glória - 203 - Campo Grande",
            "phone": "81 98129 8136",
            "latitude": -8.033883129323511,
            "longitude": -34.87820813558206
        },
        {
            "name": "Associação Da 3ª Idade Da Vila São Miguel",
            "description": "Lar para idosos.",
            "address": "Rua General Carlos Lira - 30 - Afogados",
            "phone": "81 3448 0350",
            "latitude": -8.0798366645665,
            "longitude": -34.91062370859743
        },
        {
            "name": "Associaçãode de Parkinson de Pernambuco",
            "description": "Instituição sem fins lucrativos, criada em 2001 que, através de serviços e informações acerca da doença de Parkinson, visa contribuir diretamente para a melhoria da qualidade de vida de seus associados.",
            "address": "Av. Caxangá - 2200 - Cordeiro",
            "phone": "81 3424 2710",
            "latitude": -8.046472077868632,
            "longitude": -34.926947093253844
        },
        {
            "name": "Anjos do Poço",
            "description": "Instituição sem fins lucrativos que abriga cães abandonados, oferece suporte veterinário e promoove adoção animal.",
            "address": "Rua Virgílio de Oliveira - 255 - Poço da Panela",
            "phone": "81 98229 5333",
            "latitude": -8.037620389827598,
            "longitude": -34.92303615092564
        },
        {
            "name": "Associação Casa do Amor",
            "description": "Lar para idosas, promove atividades recreativas, acompanhamento de saúde.",
            "address": "Rua Ramiz Galvão - 218 - Arruda",
            "phone": "81 3426 6974",
            "latitude": -8.02503501277099,
            "longitude": -34.89549249325384
        },
        {
            "name": "Associação Projeto Casa Da Criança",
            "description": "Promove reforma de abrigos e creches para as crianças, reforma áreas infantis em hospitais para o tratamento de câncer infanto juvenil.",
            "address": "Rua Raul Lafayette - 191 - Boa Viagem",
            "phone": "81 3467 9968",
            "latitude": -8.122240207594238,
            "longitude": -34.901075522089734
        },
        {
            "name": "Instituição Filhas de Maria Servas da Caridade",
            "description": "Promove serviçõs sociais de apoio à saúde.",
            "address": "Rua José de Alencar - 611 - Boa Vista",
            "phone": "81 3221 0934",
            "latitude": -8.063648424526296,
            "longitude": -34.890396606746144
        },
        {
            "name": "Lar do Nenen",
            "description": "ONG que acolhe, temporariamente, meninos e meninas de 0 a 3 anos, em situação de grave risco social ou abandono, promovendo sua proteção integral, facilitando sua reintegração familiar e comunitária, ou quando inviável, sua colocação, por adoção, em família substituta.",
            "address": "Rua Menezes Drumond - 284 - Madalena",
            "phone": "81 98877 3729",
            "latitude": -8.050538172653864,
            "longitude": -34.91078795092563
        },
        {
            "name": "NACC - Núcleo de Apoio à Criança com Câncer",
            "description": "Oferece suporte aos serviços de oncologia pediátrica do Recife através de apoio às crianças e adolescentes em tratamento na cidade e seus familiares.",
            "address": "Rua do Futuro - 855 - Graças",
            "phone": "81 3267 9200",
            "latitude": -8.038083490039801,
            "longitude": -34.902505637433336
        },
        {
            "name": "Instituição de Caridade Lar Paulo de Tarso",
            "description": "Acolhe de forma integral crianças e adolescentes em situação de risco social de alta complexidade.",
            "address": "Rua Jerônimo Heráclito - 479 - Ipsep",
            "phone": "81 3471 0919 ",
            "latitude": -8.109090222719505,
            "longitude": -34.92381166441795
        },
        {
            "name": "Grupo de Ajuda à Criança Carente com Câncer de Pernambuco (GAC-PE)",
            "description": "Prestação de assistência social humanizada às crianças, adolescentes e jovens com câncer em tratamento no Centro de OncoHematologia Pediátrica.",
            "address": "Rua Dr. Otávio Coutinho - 310 - Santo Amaro",
            "phone": "81 99742 2100",
            "latitude": -8.0464812474827,
            "longitude": -34.886646922089746
        },
        {
            "name": "AACD - Associação de Assistência à Criança Deficiente",
            "description": "Realiza consultas médicas, exames de imagem, cirurgias, terapias e a fabricação de produtos ortopédicos sob medida. Com o objetivo de estimular a reintegração das pessoas com deficiência física à sociedade, também são promovidas ações de inclusão social.",
            "address": "Av. Advogado José Paulo Cavalcanti - 155 - Ilha Joana Bezerra",
            "phone": "81 3419 4000",
            "latitude": -8.071789450961326,
            "longitude": -34.893094589846704
        },
        {
            "name": "Instituto Beneficente Amigos da Criança",
            "description": "Atua na promoção de assistência a crianças em situação de vulnerabilidade social.",
            "address": "Av. Dr. José Rufino, 128 - Jaboatão dos Guararapes",
            "phone": "(81) 3482-1826",
            "latitude": -8.086454,
            "longitude": -34.945078
        },
        {
            "name": "Instituto de Assistência Social e Cidadania",
            "description": "Oferece serviços socioassistenciais para a comunidade local.",
            "address": "R. São José, 261 - Olinda",
            "phone": "(81) 3429-3070",
            "latitude": -8.009658,
            "longitude": -34.853392
        },
        {
            "name": "Associação de Assistência à Criança e ao Adolescente",
            "description": "Presta auxílio e apoio a crianças e adolescentes em situação de risco.",
            "address": "Av. Abreu e Lima, 1234 - Jaboatão dos Guararapes",
            "phone": "(81) 3382-4050",
            "latitude": -8.102923,
            "longitude": -34.908072
        },
        {
            "name": "Associação de Apoio aos Doentes com Câncer",
            "description": "Oferece suporte e assistência a pacientes oncológicos e seus familiares.",
            "address": "R. Joaquim Nabuco, 567 - Olinda",
            "phone": "(81) 3429-7015",
            "latitude": -8.009833,
            "longitude": -34.859836
        },
        {
            "name": "Associação Beneficente de Apoio aos Idosos",
            "description": "Promove o cuidado e o bem-estar de idosos na região.",
            "address": "Av. Beira Mar, 432 - Jaboatão dos Guararapes",
            "phone": "(81) 3378-2010",
            "latitude": -8.130174,
            "longitude": -34.928743
        },
        {
            "name": "Centro de Acolhimento e Apoio à Mulher",
            "description": "Oferece suporte e proteção a mulheres vítimas de violência doméstica.",
            "address": "R. da Conceição, 789 - Olinda",
            "phone": "(81) 3439-5050",
            "latitude": -8.006401,
            "longitude": -34.855799
        },
        {
            "name": "Centro de Educação e Desenvolvimento Comunitário",
            "description": "Promove a educação e o desenvolvimento comunitário em Olinda.",
            "address": "R. Dr. Manoel Borba, 321 - Olinda",
            "phone": "(81) 3429-9500",
            "latitude": -7.998456,
            "longitude": -34.847309
        },
        {
            "name": "Instituto de Acolhimento e Resgate da Cidadania",
            "description": "Atua no resgate e na reintegração social de pessoas em situação de rua.",
            "address": "Av. Gov. Agamenon Magalhães, 1045 - Jaboatão dos Guararapes",
            "phone": "(81) 3378-5500",
            "latitude": -8.132407,
            "longitude": -34.935422
        },
        {
            "name": "Centro de Promoção da Saúde",
            "description": "Promove a saúde e o bem-estar da comunidade local.",
            "address": "R. da Boa Hora, 210 - Olinda",
            "phone": "(81) 3429-8000",
            "latitude": -7.998898,
            "longitude": -34.854144
        },
        {
            "name": "Associação de Amparo aos Animais",
            "description": "Oferece cuidados e abrigo a animais abandonados e em situação de risco.",
            "address": "Av. Dr. Fábio Corrêa, 765 - Jaboatão dos Guararapes",
            "phone": "(81) 3362-1020",
            "latitude": -8.108246,
            "longitude": -34.912726
        },
        {
            "name": "Associação de Apoio aos Portadores de Deficiência",
            "description": "Presta apoio e assistência a pessoas com deficiência na região.",
            "address": "R. do Amparo, 543 - Olinda",
            "phone": "(81) 3429-6070",
            "latitude": -7.996789,
            "longitude": -34.852162
        },
        {
            "name": "Instituto de Ação Social e Desenvolvimento",
            "description": "Atua no desenvolvimento social e na promoção da cidadania.",
            "address": "Av. Gov. Carlos de Lima Cavalcanti, 123 - Jaboatão dos Guararapes",
            "phone": "(81) 3378-9030",
            "latitude": -8.123395,
            "longitude": -34.935668
        },
        {
            "name": "Associação de Assistência ao Dependente Químico",
            "description": "Oferece suporte e tratamento a dependentes químicos e suas famílias.",
            "address": "R. de São Bento, 876 - Olinda",
            "phone": "(81) 3439-2000",
            "latitude": -8.006774,
            "longitude": -34.854784
        },
        {
            "name": "Centro de Integração e Apoio ao Trabalhador",
            "description": "Promove a integração e oferece apoio a pessoas em busca de emprego.",
            "address": "Av. Bernardo Vieira de Melo, 987 - Jaboatão dos Guararapes",
            "phone": "(81) 3378-4050",
            "latitude": -8.134799,
            "longitude": -34.931726
        },
        {
            "name": "Associação de Apoio à Terceira Idade",
            "description": "Presta assistência e promove a qualidade de vida dos idosos na região.",
            "address": "R. do Amparo, 321 - Olinda",
            "phone": "(81) 3429-8001",
            "latitude": -7.996539,
            "longitude": -34.851982
        }
    ]
}